,City,Cloudiness,Country,Date,Humidity,Lat,Lng,Max Temp,Wind Speed
0,Hilo,90,US,1581484806,88,19.73,-155.09,68.0,5.82
1,Ponta do Sol,20,PT,1581484620,82,32.67,-17.1,60.8,4.7
2,Kapaa,75,US,1581485042,83,22.08,-159.32,71.6,11.41
3,Katobu,18,ID,1581485042,68,-4.94,122.53,87.39,2.8
4,Pevek,0,RU,1581485042,59,69.7,170.31,-6.79,4.92
5,Vaini,75,TO,1581485043,83,-21.2,-175.2,80.6,4.7
6,Castro,69,BR,1581485043,96,-24.79,-50.01,57.16,5.88
7,Butaritari,90,KI,1581485043,85,3.07,172.79,81.79,16.87
8,Kavieng,100,PG,1581484940,79,-2.57,150.8,82.56,18.57
9,Faanui,28,PF,1581485044,78,-16.48,-151.75,82.2,13.33
10,Palmares do Sul,0,BR,1581485044,79,-30.26,-50.51,67.69,7.27
11,Airai,100,TL,1581485044,81,-8.93,125.41,76.19,1.81
12,Calama,84,CL,1581485045,50,-22.47,-68.93,57.2,5.82
13,Cockburn Town,0,TC,1581485045,77,21.46,-71.14,77.85,20.76
14,Rikitea,100,PF,1581485045,79,-23.12,-134.97,79.14,20.47
15,Eyl,63,SO,1581485045,74,7.98,49.82,77.56,19.53
16,Bara,38,NG,1581485046,37,10.37,10.73,56.57,7.72
17,George Town,40,MY,1581485046,62,5.41,100.34,89.6,5.82
18,Montevideo,0,UY,1581484826,68,-34.83,-56.17,66.2,11.41
19,San Clemente,1,US,1581484977,70,33.43,-117.61,57.2,4.7
20,Punta Arenas,40,CL,1581485047,81,-53.15,-70.92,46.4,6.93
21,Busselton,100,AU,1581484770,26,-33.65,115.33,93.99,15.66
22,Aksarayskiy,0,RU,1581485048,85,46.79,48.01,21.2,8.95
23,Port Alfred,10,ZA,1581484671,89,-33.59,26.89,66.99,4.0
24,Te Anau,100,NZ,1581485048,52,-45.42,167.72,62.74,8.52
25,Ulundi,98,ZA,1581485048,94,-28.34,31.42,63.81,2.77
26,Flinders,90,AU,1581485049,100,-34.58,150.86,78.01,11.41
27,Ialibu,52,PG,1581485049,87,-6.28,143.99,70.18,6.02
28,Puerto Ayora,63,EC,1581485049,86,-0.74,-90.35,77.4,5.93
29,Kouvola,90,FI,1581485050,92,60.87,26.7,32.0,11.41
30,Ushuaia,90,AR,1581485050,76,-54.8,-68.3,50.0,24.16
31,Hong Kong,20,HK,1581485051,78,22.29,114.16,82.0,8.05
32,Qaanaaq,0,GL,1581485051,56,77.48,-69.36,-18.26,5.21
33,Khovd,97,MN,1581485051,52,48.01,91.64,16.18,3.44
34,Sarab,32,IR,1581485051,54,38.61,44.99,14.22,4.65
35,Zaysan,0,KZ,1581485051,89,47.47,84.87,2.03,5.21
36,Kinablangan,54,PH,1581485052,80,7.69,126.55,77.43,4.74
37,Mana,72,GF,1581485052,93,5.66,-53.78,72.48,2.98
38,Mataura,89,NZ,1581485052,77,-46.19,168.86,62.01,4.0
39,Meulaboh,7,ID,1581485052,71,4.14,96.13,83.44,2.66
40,Cape Town,0,ZA,1581484905,88,-33.93,18.42,66.0,2.24
41,Saint-Joseph,0,RE,1581485053,94,-21.37,55.62,82.4,3.36
42,Nome,1,US,1581485053,69,64.5,-165.41,-9.4,3.2
43,Ipixuna,75,BR,1581485053,100,-1.76,-48.8,75.2,2.24
44,Bluff,99,NZ,1581484973,77,-46.6,168.33,62.01,4.0
45,Albany,90,US,1581485040,69,42.6,-73.97,35.01,10.29
46,Husavik,90,IS,1581485054,92,66.04,-17.34,21.2,12.75
47,Tasiilaq,100,GL,1581484700,85,65.61,-37.64,21.2,24.16
48,Namatanai,100,PG,1581485055,79,-3.67,152.43,82.8,16.24
49,Sao Filipe,30,CV,1581485055,62,14.9,-24.5,70.47,14.43
50,San Quintin,0,MX,1581485056,58,30.48,-115.95,56.68,6.91
51,Hermanus,0,ZA,1581485056,85,-34.42,19.23,73.0,5.99
52,Saint-Augustin,100,CA,1581485056,96,51.23,-58.65,18.81,4.14
53,Chapais,90,CA,1581485056,85,49.78,-74.85,21.2,10.29
54,Maceio,40,BR,1581485057,88,-9.67,-35.74,77.0,1.12
55,Esperance,90,AU,1581484563,72,-33.87,121.9,68.0,9.17
56,Jamestown,90,US,1581484593,86,42.1,-79.24,32.0,14.99
57,Barrow,1,US,1581485057,67,71.29,-156.79,-25.6,6.93
58,Langsa,50,ID,1581485058,51,4.47,97.97,92.12,6.49
59,Cabo San Lucas,40,MX,1581484916,72,22.89,-109.91,62.01,6.93
60,Port Hedland,0,AU,1581485058,42,-20.32,118.57,94.82,10.94
61,Minot,90,US,1581485042,86,48.23,-101.3,30.2,12.75
62,Maniitsoq,51,GL,1581485059,58,65.42,-52.9,8.47,10.69
63,Shimoda,20,JP,1581485059,58,34.67,138.95,62.01,17.22
64,Pangnirtung,99,CA,1581485059,75,66.15,-65.71,-21.06,2.01
65,Lazurne,64,UA,1581485059,86,46.08,32.53,35.01,15.66
66,Euclides da Cunha,15,BR,1581485059,96,-10.51,-39.02,68.27,7.2
67,Mindelo,31,CV,1581485060,82,16.89,-24.98,68.0,18.34
68,Grindavik,40,IS,1581485060,79,63.84,-22.43,24.8,3.36
69,Bosaso,75,SO,1581484965,83,11.28,49.18,77.0,11.07
70,Saint George,1,US,1581484761,32,37.1,-113.58,39.0,5.82
71,Awjilah,0,LY,1581485061,46,29.11,21.29,55.65,7.99
72,Baykit,39,RU,1581485061,88,61.67,96.37,-6.61,1.88
73,Saldanha,0,ZA,1581485061,72,-33.01,17.94,64.4,3.36
74,Ilulissat,81,GL,1581484820,49,69.22,-51.1,-2.2,4.7
75,Quatre Cocos,40,MU,1581485061,94,-20.21,57.76,84.0,12.75
76,Bredasdorp,14,ZA,1581485062,82,-34.53,20.04,69.01,10.29
77,Ribeira Grande,48,PT,1581485062,89,38.52,-28.7,58.28,13.13
78,Avarua,100,CK,1581484576,83,-21.21,-159.78,80.6,13.87
79,Ahar,84,IR,1581485062,77,38.48,47.07,7.25,11.07
80,Campo de Criptana,100,ES,1581485063,97,39.4,-3.12,44.01,2.86
81,Labuhan,100,ID,1581485063,77,-6.88,112.21,84.07,6.44
82,Hobart,75,AU,1581484503,68,-42.88,147.33,64.99,14.99
83,Oranjestad,20,AW,1581484888,78,12.52,-70.03,80.6,19.46
84,Beringovskiy,100,RU,1581485063,94,63.05,179.32,7.14,11.52
85,Nikolskoye,75,RU,1581485064,96,59.7,30.79,35.01,8.95
86,Salalah,75,OM,1581485064,57,17.02,54.09,77.0,10.29
87,Stara Vyzhivka,100,UA,1581485064,82,51.44,24.44,34.86,17.2
88,Chokurdakh,63,RU,1581485064,67,70.63,147.92,-25.64,2.19
89,Danane,5,CI,1581485065,21,7.26,-8.15,68.13,3.06
90,Vakhrushev,99,RU,1581485065,89,48.98,142.97,18.95,2.51
91,Chui,3,UY,1581484938,83,-33.7,-53.46,64.96,9.4
92,Coquimbo,90,CL,1581485066,88,-29.95,-71.34,62.6,2.24
93,Ambilobe,98,MG,1581485066,95,-13.2,49.05,74.66,3.44
94,Geraldton,0,AU,1581485061,41,-28.77,114.6,91.4,10.29
95,Mehamn,90,NO,1581485066,80,71.04,27.85,33.8,29.97
96,Mount Isa,0,AU,1581485066,14,-20.73,139.5,100.4,12.75
97,Brae,99,GB,1581485067,69,60.4,-1.35,39.2,11.41
98,Lima,75,PE,1581485040,83,-12.04,-77.03,73.4,11.41
99,Buala,86,SB,1581485067,81,-8.14,159.59,82.38,8.57
100,Russell,90,US,1581485068,93,32.35,-85.2,64.99,3.22
101,Carnarvon,95,AU,1581485068,65,-24.87,113.63,82.4,13.87
102,New Norfolk,75,AU,1581485068,77,-42.78,147.06,64.99,16.11
103,Juneau,90,US,1581484832,80,58.3,-134.42,35.6,5.82
104,Bilma,67,NE,1581484882,28,18.69,12.92,52.75,2.91
105,Chazuta,48,PE,1581485069,76,-6.57,-76.14,72.81,1.36
106,Tuktoyaktuk,5,CA,1581485069,66,69.45,-133.04,-31.0,9.17
107,Nikki,29,BJ,1581485070,16,9.94,3.21,66.79,9.84
108,Rawson,3,AR,1581484623,52,-43.3,-65.1,71.82,27.22
109,Tornio,40,FI,1581485070,100,65.85,24.13,26.6,9.17
110,Marquette,1,US,1581484903,67,46.53,-87.63,23.0,13.87
111,Esim,100,GH,1581485071,95,4.87,-2.24,76.19,1.43
112,Krutinka,74,RU,1581485071,92,56.01,71.51,6.53,10.69
113,Yanliang,0,CN,1581485071,26,34.66,109.23,57.2,4.47
114,Balkhash,0,KZ,1581485072,71,46.84,74.98,5.0,26.84
115,Belmonte,100,BR,1581485072,83,-15.86,-38.88,78.8,3.36
116,Tiksi,96,RU,1581485060,95,71.69,128.87,-24.16,2.73
117,Sarmanovo,90,RU,1581485073,57,55.26,52.59,17.6,20.13
118,Conde,40,BR,1581485073,94,-7.26,-34.91,77.0,3.36
119,Haines Junction,66,CA,1581485073,86,60.75,-137.51,-0.72,3.94
120,Cherskiy,12,RU,1581485074,65,68.75,161.3,-2.85,13.69
121,Road Town,75,VG,1581484873,69,18.42,-64.62,78.8,13.87
122,Chililabombwe,100,ZM,1581485074,94,-12.36,27.82,66.81,5.61
123,Tabaquite,40,TT,1581485074,78,10.38,-61.3,78.8,8.05
124,Todos Santos,40,MX,1581485075,72,23.45,-110.22,62.01,6.93
125,Maraba,75,BR,1581485075,100,-5.37,-49.12,73.4,2.24
126,Raja,94,SS,1581485075,18,8.46,25.68,60.53,9.08
127,Assiut,0,EG,1581485075,66,27.18,31.18,48.2,8.05
128,East London,40,ZA,1581485076,83,-33.02,27.91,69.8,8.05
129,Whitecourt,75,CA,1581485076,78,54.15,-115.69,14.0,4.7
130,Kahului,20,US,1581485076,73,20.89,-156.47,71.6,12.75
131,Celina,1,US,1581485076,77,40.55,-84.57,32.0,6.46
132,Sigli,48,ID,1581485076,78,5.38,95.96,81.52,4.54
133,San Patricio,50,MX,1581485077,77,19.22,-104.7,75.9,3.33
134,Tautira,20,PF,1581485077,70,-17.73,-149.15,84.2,3.36
135,Vila Franca do Campo,20,PT,1581485077,87,37.72,-25.43,57.2,12.37
136,Mezhova,100,UA,1581484938,99,48.25,36.73,34.25,6.13
137,Kysyl-Syr,80,RU,1581485078,95,63.9,122.76,-9.6,5.77
138,Pisco,100,PE,1581485078,83,-13.7,-76.22,69.8,3.15
139,Hay River,20,CA,1581485078,73,60.82,-115.8,-31.0,4.7
140,La Ciotat,17,FR,1581485078,75,43.17,5.6,51.8,13.87
141,Torbay,90,CA,1581485078,86,47.67,-52.73,30.0,11.41
142,Ushumun,100,RU,1581485079,89,52.78,126.53,12.15,9.15
143,Monrovia,75,LR,1581484998,94,6.3,-10.8,75.2,2.91
144,Bethel,90,US,1581485080,69,41.37,-73.41,42.8,11.41
145,Aksarka,7,RU,1581485080,92,66.56,67.8,15.03,13.89
146,Yulara,0,AU,1581485080,11,-25.24,130.99,104.0,6.93
147,Port Blair,4,IN,1581485080,75,11.67,92.75,80.98,15.77
148,Mansa,13,IN,1581485081,31,29.98,75.38,72.73,10.42
149,Navoiy,90,UZ,1581485081,100,40.08,65.38,39.2,6.93
150,Samarai,69,PG,1581484984,85,-10.62,150.67,82.42,5.53
151,Tibati,77,CM,1581485081,22,6.47,12.63,62.31,6.51
152,Izmalkovo,100,RU,1581485081,94,52.69,37.96,25.72,14.58
153,Warrnambool,97,AU,1581485082,84,-38.38,142.48,73.0,24.92
154,Mareeba,0,AU,1581485082,53,-17.0,145.43,95.0,9.17
155,Casablanca,0,MA,1581484981,100,33.59,-7.62,42.8,2.24
156,Iqaluit,5,CA,1581485082,60,63.75,-68.51,-27.0,14.99
157,Basco,44,PH,1581485083,74,20.45,121.97,76.24,16.49
158,Lebu,0,CL,1581485083,98,-37.62,-73.65,55.6,3.53
159,Severo-Kuril'sk,74,RU,1581485083,91,50.68,156.12,20.79,13.35
160,Kruisfontein,0,ZA,1581485083,69,-34.0,24.73,70.29,7.87
161,Hamilton,1,US,1581485083,80,39.18,-84.53,35.01,2.08
162,Ancud,83,CL,1581485084,82,-41.87,-73.82,55.4,5.82
163,San Miguel,20,SV,1581485084,88,13.48,-88.18,80.6,4.7
164,Petropavlovsk-Kamchatsky,4,RU,1581485084,46,53.05,158.65,30.2,11.18
165,Taybad,0,IR,1581485084,28,34.74,60.78,43.2,8.68
166,Nhulunbuy,75,AU,1581485084,74,-12.23,136.77,82.4,12.75
167,Tuy Hoa,20,VN,1581484892,87,13.08,109.3,75.67,8.39
168,Rize,83,TR,1581485085,57,40.9,40.89,32.09,3.24
169,Port Elizabeth,0,ZA,1581485085,83,-33.92,25.57,69.8,8.05
170,Mogadishu,75,SO,1581485085,74,2.04,45.34,80.6,11.41
171,Carbonia,20,IT,1581485086,87,39.17,8.52,57.0,9.17
172,Sao Joao da Barra,100,BR,1581485086,91,-21.64,-41.05,73.09,12.57
173,Talaya,0,RU,1581485086,31,61.38,152.75,-11.45,2.37
174,Bud,75,US,1581485086,80,39.45,-86.18,33.01,2.66
175,Hithadhoo,60,MV,1581485087,74,-0.6,73.08,83.5,14.7
176,Christchurch,90,NZ,1581484819,72,-43.53,172.63,68.0,18.34
177,Pouembout,100,NC,1581485088,82,-21.13,164.9,80.24,7.83
178,Laguna,1,US,1581485088,57,38.42,-121.42,57.0,7.16
179,Goderich,95,CA,1581485088,74,43.75,-81.72,30.0,1.99
180,Aitape,98,PG,1581485088,78,-3.14,142.35,82.62,13.65
181,Kasongo-Lunda,92,CD,1581484939,90,-6.47,16.82,69.57,0.54
182,Rosarito,1,MX,1581485089,66,32.33,-117.03,57.99,4.7
183,Grand Gaube,40,MU,1581485089,94,-20.01,57.66,84.0,12.75
184,Clyde River,90,CA,1581484818,75,70.47,-68.59,-18.4,8.05
185,Bengkulu,85,ID,1581484944,50,-3.8,102.27,92.14,0.67
186,Atuona,11,PF,1581485089,80,-9.8,-139.03,81.23,16.82
187,Kirakira,100,SB,1581485090,74,-10.45,161.92,83.23,11.03
188,Wattegama,90,LK,1581485090,100,6.8,81.48,77.0,17.22
189,Daru,100,PG,1581485090,79,-9.08,143.21,85.26,7.49
190,Anadyr,90,RU,1581485090,71,64.75,177.48,8.6,4.47
191,Tutoia,63,BR,1581485091,97,-2.76,-42.27,74.05,2.82
192,Saskylakh,15,RU,1581484880,97,71.92,114.08,-31.95,2.66
193,Mezen,100,RU,1581485091,96,65.85,44.24,31.95,17.85
194,Lompoc,1,US,1581485023,87,34.64,-120.46,52.0,4.7
195,Arraial do Cabo,99,BR,1581485092,77,-22.97,-42.03,75.83,10.2
196,Monterey,1,US,1581485092,57,36.25,-121.25,53.01,0.96
197,Karpathos,0,GR,1581485094,87,35.51,27.21,57.2,6.93
198,Margate,68,GB,1581485095,74,51.38,1.39,39.99,14.99
199,Avanuorri,90,NO,1581485095,74,71.0,24.66,33.8,34.45
200,Poole,83,GB,1581485095,93,50.72,-2.0,39.99,11.41
201,Antofagasta,27,CL,1581485096,82,-23.65,-70.4,66.2,3.36
202,Zhigansk,100,RU,1581485096,91,66.77,123.37,-16.71,9.48
203,Tuatapere,100,NZ,1581485096,77,-46.13,167.68,62.01,4.0
204,Rockland,75,US,1581485096,64,41.17,-74.05,45.0,18.34
205,Broken Hill,0,AU,1581484999,33,-31.95,141.43,86.0,18.34
206,Mahibadhoo,95,MV,1581485097,75,3.78,72.97,83.53,19.53
207,Taoudenni,0,ML,1581485097,80,22.68,-3.98,60.57,5.01
208,Sitka,75,US,1581485097,68,57.05,-135.33,37.4,5.82
209,Shelburne,75,CA,1581485097,74,44.08,-80.2,28.99,9.17
210,Kamiiso,75,JP,1581485098,70,41.82,140.65,48.2,17.22
211,Mecca,0,SA,1581485098,34,21.43,39.83,71.26,5.35
212,Isla Mujeres,40,MX,1581484866,83,21.23,-86.73,78.8,10.29
213,Along,37,IN,1581485099,42,28.17,94.77,70.77,3.91
214,Tsumeb,20,NA,1581485099,82,-19.23,17.72,64.4,9.78
215,Coahuayana Viejo,4,MX,1581485099,72,18.73,-103.68,68.54,4.14
216,Ust-Nera,100,RU,1581485099,99,64.57,143.2,-17.14,4.25
217,Thompson,5,CA,1581484433,60,55.74,-97.86,-27.4,10.29
218,Ballina,75,AU,1581485100,94,-28.87,153.57,78.8,12.75
219,High Level,40,CA,1581485100,75,58.52,-117.14,-14.8,9.17
220,San Luis,0,AR,1581485100,42,-33.3,-66.34,71.58,13.15
221,Lagoa,17,PT,1581485100,81,39.05,-27.98,62.38,19.53
222,Nemuro,40,JP,1581485101,51,43.32,145.57,37.4,9.17
223,Bonavista,100,CA,1581485101,88,48.65,-53.11,28.99,8.01
224,Batagay,100,RU,1581485101,97,67.63,134.63,-15.54,1.12
225,Plettenberg Bay,0,ZA,1581485102,66,-34.05,23.37,73.08,1.12
226,Guerrero Negro,0,MX,1581485102,76,27.98,-114.06,57.6,5.7
227,Kashgar,44,CN,1581485102,21,39.45,75.98,48.2,2.24
228,Abilene,90,US,1581484807,92,32.45,-99.73,37.4,4.7
229,Hurdugi,16,RO,1581485103,60,46.51,28.05,35.31,11.07
230,Padang,97,ID,1581485103,76,-0.95,100.35,77.92,4.16
231,Aswan,0,EG,1581485103,53,24.09,32.91,52.54,12.62
232,Santa Isabel do Rio Negro,89,BR,1581485103,68,-0.41,-65.02,79.56,2.66
233,Marshall,90,US,1581485104,93,34.38,-86.33,46.99,8.05
234,Isangel,75,VU,1581485104,79,-19.55,169.27,84.2,9.17
235,Dunedin,100,NZ,1581485104,89,-45.87,170.5,60.01,5.99
236,Kodiak,90,US,1581485104,86,57.79,-152.41,33.8,26.4
237,Bambous Virieux,40,MU,1581485104,94,-20.34,57.76,84.0,12.75
238,Riacho de Santana,81,BR,1581485105,74,-13.61,-42.94,78.8,5.82
239,Olga,42,RU,1581485105,87,43.74,135.29,36.05,22.37
240,Phek,1,IN,1581485105,33,25.67,94.5,70.11,1.68
241,Oksfjord,40,NO,1581484924,95,70.24,22.35,33.8,18.34
242,Samana,2,DO,1581485106,98,19.21,-69.34,67.37,1.66
243,Ventimiglia,0,IT,1581485076,32,43.79,7.6,51.8,5.82
244,Upernavik,100,GL,1581484568,76,72.79,-56.15,-9.99,2.17
245,Henties Bay,2,NA,1581485106,83,-22.12,14.28,66.0,3.0
246,Dubki,20,RU,1581485107,73,43.02,46.84,24.8,2.24
247,Tambacounda,0,SN,1581485107,27,13.75,-13.76,77.0,6.93
248,Bathsheba,40,BB,1581485107,74,13.22,-59.52,78.8,23.04
249,Harrismith,87,ZA,1581485107,93,-28.27,29.13,55.36,3.85
250,Leh,98,IN,1581485107,62,34.17,77.58,14.31,2.15
251,Santa Isabel,75,BR,1581485108,93,-23.32,-46.22,66.2,3.36
252,Klaksvik,31,FO,1581485108,74,62.23,-6.59,33.8,12.75
253,Bintulu,75,MY,1581485108,70,3.17,113.03,89.6,6.93
254,Aklavik,90,CA,1581485109,75,68.22,-135.01,-18.4,4.7
255,Quelimane,75,MZ,1581485109,94,-17.88,36.89,75.2,9.17
256,Fortuna,1,US,1581485109,81,40.6,-124.16,52.0,9.17
257,Rio de Janeiro,90,BR,1581484929,100,-22.9,-43.21,71.6,4.7
258,Touros,40,BR,1581485110,88,-5.2,-35.46,75.2,4.7
259,Yellowknife,5,CA,1581485110,65,62.46,-114.35,-34.01,1.95
260,Onguday,0,RU,1581485110,70,50.75,86.15,5.92,3.6
261,Nueva Armenia,20,HN,1581485111,94,15.8,-86.5,80.6,3.36
262,Khatanga,17,RU,1581485111,90,71.97,102.5,-16.11,7.72
263,Melfi,75,IT,1581485111,87,41.0,15.65,51.8,6.93
264,Concepcion,0,CL,1581484852,88,-36.83,-73.05,62.6,5.82
265,Puerto del Rosario,0,ES,1581485111,93,28.5,-13.86,64.4,9.17
266,Birobidzhan,96,RU,1581485112,83,48.8,132.95,27.23,1.81
267,Dickinson,90,US,1581485112,100,29.46,-95.05,60.01,9.17
268,Vardo,75,NO,1581485112,100,70.37,31.11,30.2,11.41
269,Mar del Plata,0,AR,1581484563,88,-38.0,-57.56,68.0,6.93
270,Yumen,60,CN,1581485112,18,40.28,97.2,41.45,23.67
271,Hambantota,90,LK,1581484820,100,6.12,81.12,77.0,17.22
272,Kaliua,57,TZ,1581484999,81,-5.06,31.79,71.08,2.53
273,Yaqui,0,MX,1581485113,73,27.37,-110.17,50.22,4.9
274,Homer,90,US,1581485113,73,59.64,-151.55,24.8,9.17
275,Kautokeino,100,NO,1581485113,82,69.01,23.04,19.49,5.73
276,Vestmannaeyjar,0,IS,1581485114,66,63.44,-20.27,26.67,16.02
277,Berlevag,90,NO,1581485114,80,70.86,29.09,33.8,29.97
278,Bardiyah,11,LY,1581485114,75,31.76,25.09,56.95,14.45
279,Grand-Santi,60,GF,1581485114,99,4.25,-54.38,70.16,2.51
280,Port Hardy,5,CA,1581485115,95,50.7,-127.42,33.8,6.93
281,Santa Fe,0,AR,1581485115,67,-31.63,-60.7,72.0,4.0
282,Hirara,75,JP,1581485115,69,24.8,125.28,75.2,18.34
283,Tual,29,ID,1581485061,77,-5.67,132.75,82.63,15.97
284,Provideniya,90,RU,1581485115,84,64.38,-173.3,1.4,17.9
285,Parnamirim,40,BR,1581485116,88,-5.92,-35.26,77.0,4.7
286,Bhalki,0,IN,1581485116,41,18.03,77.22,81.5,10.65
287,Andenes,75,NO,1581485117,80,69.31,16.12,33.8,4.7
288,Wanning,9,CN,1581485117,75,18.8,110.4,75.61,7.02
289,Lorengau,91,PG,1581485117,76,-2.02,147.27,83.14,15.08
290,Hasaki,75,JP,1581485117,51,35.73,140.83,59.0,14.99
291,Praia,20,CV,1581485117,46,14.92,-23.51,71.6,13.87
292,Muros,75,ES,1581485118,100,42.78,-9.06,54.0,3.36
293,Nanortalik,53,GL,1581485001,53,60.14,-45.24,14.47,14.03
294,Mergen,30,CN,1581485118,88,49.18,125.22,22.33,5.44
295,Qeshm,0,IR,1581485118,40,26.96,56.27,68.0,4.7
296,Nyurba,93,RU,1581485118,92,63.28,118.33,-8.37,7.05
297,Cabedelo,40,BR,1581485119,94,-6.98,-34.83,77.0,3.36
298,Inhambane,75,MZ,1581484963,94,-23.86,35.38,78.8,6.93
299,Gushikawa,20,JP,1581485119,57,26.35,127.87,77.0,16.11
300,Dengzhou,62,CN,1581485119,93,37.81,120.75,43.39,1.05
301,College,1,US,1581485120,75,64.86,-147.8,-8.0,5.82
302,Moron,0,AR,1581485120,73,-34.65,-58.62,72.0,11.41
303,Mabiton,22,PH,1581485120,65,12.83,123.26,82.38,14.38
304,Dikson,100,RU,1581485121,90,73.51,80.55,10.4,30.36
305,Bors,23,RO,1581485121,86,47.12,21.82,34.0,11.41
306,Sicamous,90,CA,1581485121,100,50.83,-118.99,30.2,2.24
307,Winnemucca,1,US,1581485121,54,40.97,-117.74,30.2,8.05
308,Isabela,40,PH,1581485122,66,6.71,121.97,86.0,8.05
309,Walvis Bay,48,NA,1581485001,82,-22.96,14.51,66.0,4.7
310,Polis,75,CY,1581485122,81,35.04,32.43,53.6,6.93
311,Kitgum,66,UG,1581485122,25,3.28,32.89,80.08,1.97
312,Mirny,0,RU,1581484700,75,62.54,113.96,-13.0,8.95
313,Barkly West,0,ZA,1581485123,77,-28.54,24.52,66.2,13.87
314,Fenelon Falls,90,CA,1581484856,74,44.53,-78.75,30.99,14.99
315,Bhadasar,4,IN,1581485123,26,28.28,74.32,69.6,4.83
316,Half Moon Bay,1,US,1581485123,66,37.46,-122.43,59.0,3.36
317,Port Said,40,EG,1581484987,87,31.26,32.28,53.6,5.82
318,Xiazhen,0,CN,1581485124,42,34.8,117.11,61.56,7.38
319,Oddur,17,SO,1581485124,67,4.12,43.89,75.6,20.87
320,Pakdasht,4,IR,1581485124,41,35.48,51.68,24.8,12.55
321,Port Lincoln,91,AU,1581485125,63,-34.73,135.87,71.1,13.78
322,Paamiut,100,GL,1581485125,84,61.99,-49.67,2.97,13.47
323,Urucara,81,BR,1581485125,97,-2.54,-57.76,73.99,0.87
324,Belyy Yar,99,RU,1581485125,61,53.6,91.39,12.2,2.24
325,Haining,40,CN,1581485125,82,30.54,120.69,68.0,2.24
326,Itanhem,98,BR,1581485126,96,-17.17,-40.33,70.81,0.74
327,Pitimbu,40,BR,1581485126,94,-7.47,-34.81,77.0,3.36
328,Abu Samrah,99,SY,1581485126,73,35.3,37.18,36.34,10.92
329,Saint George's,20,GD,1581485126,78,12.06,-61.75,78.8,8.05
330,Codrington,100,AU,1581485127,91,-38.27,141.97,63.16,25.08
331,Cairns,5,AU,1581485116,53,-16.92,145.77,95.0,9.17
332,Alta Floresta,77,BR,1581485127,96,-9.88,-56.09,72.03,2.86
333,Amboise,79,FR,1581485127,86,47.41,0.98,39.2,8.05
334,Constitucion,14,CL,1581485061,84,-35.33,-72.42,56.93,5.5
335,Batouri,63,CM,1581485128,31,4.43,14.37,60.75,6.31
336,Narrabri,75,AU,1581485128,64,-30.32,149.78,81.0,14.99
337,Chikmagalur,88,IN,1581485128,38,13.32,75.78,80.35,12.03
338,Arrondissement de Saint-Denis,75,FR,1581485129,86,48.92,2.33,39.99,10.29
339,Wilayat-e Zabul,100,AF,1581485129,100,32.25,67.25,37.27,11.92
340,Kiryat Gat,75,IL,1581485129,76,31.61,34.76,55.4,12.75
341,Mochudi,21,BW,1581485129,93,-24.42,26.15,66.2,5.82
342,Barao de Melgaco,75,BR,1581485130,88,-16.19,-55.97,77.0,2.24
343,San Jose,1,US,1581484940,40,37.34,-121.89,57.99,4.7
344,Trairi,88,BR,1581485130,97,-3.28,-39.27,73.31,3.36
345,Parambu,29,BR,1581485130,95,-6.21,-40.69,69.55,3.29
346,Srednekolymsk,6,RU,1581485131,44,67.45,153.68,-23.6,0.31
347,North Adams,90,US,1581485131,69,42.7,-73.11,36.0,12.75
348,Haysville,1,US,1581485131,50,37.56,-97.35,36.0,6.93
349,Zeya,100,RU,1581485131,90,53.75,127.27,12.27,7.56
350,La Asuncion,0,VE,1581485131,88,11.03,-63.86,78.8,14.99
351,Launceston,20,AU,1581485090,47,-41.45,147.17,82.0,20.8
352,Marrakesh,38,MA,1581485132,47,31.63,-8.01,57.2,4.7
353,Belaya Gora,100,RU,1581485133,75,68.53,146.42,-24.36,1.83
354,Penzance,84,GB,1581485133,86,50.12,-5.54,45.0,13.87
355,Pontianak,20,ID,1581485133,74,-0.03,109.33,84.2,6.93
356,Rio Gallegos,90,AR,1581485133,71,-51.62,-69.22,55.4,14.99
357,Vila Velha,90,BR,1581485134,94,-20.33,-40.29,73.4,5.82
358,Oudtshoorn,90,ZA,1581485134,100,-33.59,22.2,62.6,2.24
359,Talnakh,40,RU,1581485135,84,69.49,88.4,3.2,35.79
360,Sukhumi,100,GE,1581485135,47,43.0,41.02,38.25,7.2
361,Keti Bandar,15,PK,1581485135,19,24.14,67.45,80.1,12.84
362,Kajiado,20,KE,1581485135,87,-1.85,36.78,60.8,4.21
363,Kitui,86,KE,1581485136,66,-1.37,38.01,75.36,1.74
364,Sioux Lookout,90,CA,1581485136,73,50.1,-91.92,23.0,8.05
365,Lavrentiya,99,RU,1581485136,92,65.58,-171.0,-6.21,9.17
366,Cayenne,40,GF,1581484820,78,4.93,-52.33,78.8,5.82
367,Tezu,71,IN,1581485137,30,27.92,96.17,74.71,4.38
368,Alofi,100,NU,1581485137,88,-19.06,-169.92,78.8,6.93
369,Kongolo,50,CD,1581485137,94,-5.38,27.0,72.54,2.44
370,Teguise,0,ES,1581485137,72,29.06,-13.56,64.4,9.17
371,Melito di Porto Salvo,47,IT,1581485138,59,37.92,15.77,61.0,14.99
372,Kuvshinovo,100,RU,1581485138,93,57.03,34.17,31.46,10.74
373,Vao,100,NC,1581485139,84,-22.67,167.48,79.72,27.81
374,Alyangula,92,AU,1581485139,59,-13.85,136.42,93.2,6.93
375,Longyearbyen,20,SJ,1581485139,55,78.22,15.64,8.6,16.11
376,Coruripe,17,BR,1581485139,75,-10.13,-36.18,79.54,8.12
377,Rudnichnyy,100,RU,1581485139,90,59.62,52.47,17.91,10.96
378,Manama,20,BH,1581485140,62,26.22,50.58,51.8,27.51
379,Otane,80,NZ,1581485140,39,-39.88,176.63,82.99,3.0
380,Tevaitoa,47,PF,1581485140,78,-16.78,-151.5,81.75,13.35
381,Burnie,11,AU,1581485141,64,-41.07,145.92,75.99,8.01
382,Saint Anthony,1,US,1581485141,68,45.02,-93.22,27.0,8.05
383,Mudgee,40,AU,1581485141,69,-32.59,149.59,82.0,6.93
384,Saint-Philippe,29,RE,1581485141,94,-21.36,55.77,82.4,3.36
385,Taltal,19,CL,1581485141,92,-25.4,-70.48,59.11,5.7
386,Okahandja,22,NA,1581485120,77,-21.98,16.92,62.01,3.36
387,Leningradskiy,0,RU,1581485142,95,69.38,178.42,-21.23,11.1
388,Inverell,41,AU,1581485142,87,-29.78,151.12,72.0,3.0
389,Altay,0,CN,1581485143,66,47.87,88.12,12.51,3.15
390,Veraval,1,IN,1581485143,29,20.9,70.37,90.61,8.03
391,Asau,0,RO,1581485143,59,46.43,26.4,36.0,10.29
392,Buetzow,75,DE,1581485143,87,53.85,11.98,37.99,17.22
393,San Cristobal,7,VE,1581485144,65,7.77,-72.22,77.0,3.36
394,Gualaquiza,50,EC,1581485144,95,-3.4,-78.55,63.34,0.94
395,Baraki Barak,100,AF,1581485144,100,33.97,68.95,32.11,1.81
396,Kiomboi,14,TZ,1581485144,74,-4.27,34.37,70.66,2.75
397,Shingu,75,JP,1581485145,66,33.73,135.98,55.4,6.93
398,Porbandar,75,IN,1581485022,42,21.64,69.61,80.6,9.17
399,Ponnani,20,IN,1581485145,55,10.77,75.93,87.8,5.82
400,Kisangani,62,CD,1581485145,100,0.52,25.2,68.0,3.96
401,Saraza,33,PH,1581485146,76,8.74,117.78,79.72,20.47
402,Mayskiy,75,RU,1581484941,86,47.69,40.1,26.6,22.37
403,Sistranda,40,NO,1581485147,86,63.73,8.83,39.0,16.11
404,Havre-Saint-Pierre,90,CA,1581485148,92,50.23,-63.6,23.0,5.37
405,Usinsk,100,RU,1581485148,90,65.99,57.53,20.43,22.91
406,Porto Velho,75,BR,1581485067,94,-8.76,-63.9,77.0,3.36
407,Khani,90,GE,1581485148,55,41.96,42.96,33.8,6.93
408,Tam Ky,40,VN,1581485149,69,15.57,108.48,82.4,2.24
409,Koumac,100,NC,1581485149,89,-20.57,164.28,78.49,8.16
410,Phan Thiet,3,VN,1581485031,44,10.93,108.1,90.84,15.01
411,Kuching,75,MY,1581485149,74,1.55,110.33,86.0,2.24
412,Sangar,100,RU,1581485150,98,63.92,127.47,-11.34,4.61
413,Arlit,100,NE,1581485150,14,18.74,7.39,60.93,5.73
414,Poum,99,NC,1581485150,86,-20.23,164.02,82.36,18.39
415,Ishigaki,20,JP,1581485150,69,24.34,124.16,77.0,14.99
416,Kaiyuan,29,CN,1581485150,50,23.7,103.3,63.21,17.29
417,Diu,5,IN,1581485062,69,20.71,70.98,74.95,15.5
418,Show Low,90,US,1581485151,92,34.25,-110.03,32.0,5.3
419,Sembe,62,CG,1581485151,90,1.65,14.58,69.84,4.16
420,Encruzilhada,100,BR,1581485151,92,-15.53,-40.91,70.52,5.68
421,Bariloche,20,AR,1581485151,59,-41.15,-71.31,62.6,16.11
422,Gizo,91,SB,1581485105,78,-8.1,156.84,81.09,9.73
423,Mombetsu,40,JP,1581485152,52,44.35,143.35,46.4,16.11
424,Cidreira,9,BR,1581485152,75,-30.18,-50.21,73.31,17.47
425,Hofn,92,IS,1581485153,61,64.25,-15.21,32.07,11.12
426,Valle Hermoso,90,MX,1581485153,93,25.67,-97.83,53.6,12.75
427,Flin Flon,22,CA,1581485153,92,54.77,-101.86,-29.83,8.93
428,Kathu,20,TH,1581485153,52,7.92,98.33,87.8,9.17
429,Aginskoye,100,RU,1581485153,63,51.1,114.53,14.67,17.25
430,Storslett,75,NO,1581485154,74,69.77,21.02,33.8,19.46
431,Suluq,0,LY,1581485036,88,31.67,20.25,55.58,9.62
432,Atbasar,0,KZ,1581485154,80,51.8,68.33,2.98,8.32
433,Opuwo,0,NA,1581484866,55,-18.06,13.84,65.68,2.57
434,Pemba,75,MZ,1581485154,88,-12.97,40.52,77.0,4.7
435,Sorkjosen,75,NO,1581485155,74,69.8,20.93,33.8,19.46
436,Umm Lajj,0,SA,1581485155,15,25.02,37.27,62.19,4.7
437,Ahipara,0,NZ,1581485155,65,-35.17,173.17,78.01,5.66
438,Kalmunai,9,LK,1581485155,78,7.42,81.82,81.68,19.77
439,Borogontsy,99,RU,1581485155,94,62.67,131.17,-3.84,5.03
440,Iki-Burul,90,RU,1581485156,100,45.82,44.65,21.2,15.66
441,Dwarka,10,IN,1581485156,58,22.24,68.97,77.16,6.85
442,Shetpe,0,KZ,1581485156,58,44.17,52.12,26.73,16.49
443,Faya,5,SA,1581485157,61,18.39,42.45,50.0,6.93
444,San Policarpo,10,PH,1581485157,75,12.18,125.51,81.09,16.06
445,Kaitangata,100,NZ,1581485157,90,-46.28,169.85,55.36,13.89
446,Aasiaat,100,GL,1581485157,74,68.71,-52.87,-9.62,5.01
447,Mineiros,100,BR,1581485158,95,-17.57,-52.55,68.02,0.38
448,Huambo,98,AO,1581485158,95,-12.78,15.74,60.66,1.54
449,Okhotsk,100,RU,1581485159,95,59.38,143.3,-0.27,3.02
450,Rantepao,90,ID,1581485159,82,-2.97,119.9,78.76,1.61
451,Cocorit,0,MX,1581485159,73,27.58,-109.97,50.22,4.9
452,Coyhaique,20,CL,1581485159,93,-45.58,-72.07,55.4,2.24
453,Mount Gambier,90,AU,1581485160,77,-37.83,140.77,68.0,17.22
454,Panaba,0,MX,1581484866,88,21.28,-88.27,74.01,9.75
455,Tura,0,IN,1581485160,31,25.52,90.22,77.76,6.11
456,Kencong,25,ID,1581485161,77,-8.28,113.37,82.54,9.78
457,Firozpur,40,IN,1581485161,55,30.92,74.6,62.6,5.82
458,Vanavara,1,RU,1581485161,86,60.34,102.28,-3.84,3.44
459,Mahebourg,40,MU,1581485161,94,-20.41,57.7,84.0,12.75
460,Merauke,100,ID,1581485162,86,-8.47,140.33,81.1,12.53
461,Pastos Bons,78,BR,1581485162,97,-6.6,-44.08,70.93,3.78
462,Kadnikov,100,RU,1581485162,93,59.5,40.34,32.7,9.53
463,Olafsvik,100,IS,1581485163,70,64.89,-23.71,27.16,12.33
464,Tricase,40,IT,1581485163,93,39.93,18.36,55.99,4.7
465,Katsuura,40,JP,1581485163,51,35.13,140.3,60.01,20.8
466,Khandyga,100,RU,1581485163,94,62.67,135.6,-2.18,4.25
467,Antalaha,0,MG,1581485164,68,-14.9,50.28,79.86,6.26
468,Port Augusta,0,AU,1581485164,57,-32.5,137.77,87.01,20.8
469,Romny,100,UA,1581485164,95,50.75,33.47,32.74,14.32
470,Nouadhibou,7,MR,1581485165,63,20.93,-17.03,62.6,10.29
471,Kiama,90,AU,1581485165,100,-34.68,150.87,78.01,11.41
472,Kailua,20,US,1581485165,68,21.4,-157.74,73.4,9.17
473,Juba,84,SS,1581485112,14,4.85,31.58,78.04,2.21
474,Camara de Lobos,20,PT,1581485166,82,32.63,-16.97,60.8,4.7
475,Kuytun,100,RU,1581485166,90,54.34,101.5,11.07,8.61
476,Boa Vista,75,BR,1581485109,65,2.82,-60.67,80.6,19.46
477,Rome,90,US,1581485129,93,43.21,-75.46,34.0,12.75
478,Avera,90,US,1581485167,94,33.19,-82.53,66.2,4.7
479,Kassala,77,SD,1581485167,70,15.45,36.4,60.6,11.12
480,Hasanabad,90,IR,1581485167,100,36.55,61.05,35.6,4.7
481,Arman,50,RU,1581485168,65,59.7,150.17,2.53,2.46
482,Idanre,18,NG,1581485168,24,7.11,5.12,64.49,3.09
483,Alytus,90,LT,1581485168,96,54.4,24.05,35.6,14.99
484,Matamoros,75,MX,1581485169,23,25.53,-103.25,75.2,9.17
485,Selma,0,US,1581484989,65,36.57,-119.61,51.8,1.3
486,Luganville,75,VU,1581485169,79,-15.53,167.17,87.8,4.7
487,Cartagena,0,CO,1581484878,83,10.4,-75.51,78.8,5.82
488,Ngunguru,0,NZ,1581485169,78,-35.62,174.5,77.0,5.99
489,Shitanjing,0,CN,1581485170,12,39.23,106.34,48.47,2.42
490,Abnub,12,EG,1581485170,66,27.27,31.15,48.2,8.05
491,Kirovskiy,12,RU,1581485170,99,45.09,133.51,35.17,5.35
492,Ulladulla,90,AU,1581485170,100,-35.35,150.47,72.0,11.41
493,Cravo Norte,33,CO,1581485171,47,6.3,-70.2,80.13,5.03
494,Pecos,90,US,1581485171,100,31.42,-103.49,35.01,3.67
495,Omboue,74,GA,1581485171,95,-1.57,9.26,74.95,2.48
496,Kpandu,4,GH,1581485171,24,7.0,0.29,68.94,3.24
497,Pedernales,0,DO,1581485172,80,18.04,-71.74,65.89,6.2
498,Berbera,97,SO,1581485172,76,10.44,45.01,79.72,11.27
499,North Bend,90,US,1581485172,100,43.41,-124.22,45.0,4.7
500,Verkhnevilyuysk,100,RU,1581485172,94,63.45,120.32,-9.18,8.01
501,Carroll,1,US,1581485173,56,39.55,-77.02,48.2,10.29
502,Bereket,96,TM,1581485173,91,39.24,55.52,30.02,7.27
503,Sinjar,30,IQ,1581485173,40,36.32,41.88,32.7,5.37
504,Pingliang,0,CN,1581485173,26,35.54,106.69,51.13,9.66
505,Inirida,0,CO,1581485174,76,3.87,-67.92,75.11,2.01
506,El Dorado,90,US,1581485174,100,33.21,-92.67,42.8,8.05
507,Sao Gabriel da Cachoeira,66,BR,1581485174,81,-0.13,-67.09,75.38,0.11
508,Ribeira Brava,20,PT,1581485174,82,32.65,-17.07,60.8,4.7
509,Chabahar,75,IR,1581485174,77,25.29,60.64,69.8,9.17
510,Zhaodong,0,CN,1581485175,86,46.08,125.98,37.4,8.95
511,Barranca,98,PE,1581485175,93,-10.75,-77.77,70.29,9.82
512,Makakilo City,40,US,1581485175,93,21.35,-158.09,73.4,3.36
513,Narsaq,2,GL,1581485175,38,60.92,-46.05,3.2,5.82
514,Nishihara,20,JP,1581485176,61,26.18,127.76,77.0,20.8
515,Umm Bab,1,QA,1581485176,53,25.21,50.81,60.01,24.16
516,Snezhnogorsk,75,RU,1581485176,89,69.19,33.25,32.0,4.47
517,Naze,75,JP,1581485061,64,28.37,129.48,75.2,16.11
518,Bloomington,90,US,1581485168,68,44.84,-93.3,28.0,9.17
519,Noumea,90,NC,1581485117,66,-22.28,166.46,86.0,6.93
520,Norman Wells,75,CA,1581485177,83,65.28,-126.83,-11.2,2.24
521,Yerofey Pavlovich,100,RU,1581485177,78,53.97,121.97,12.11,4.81
522,Candolim,0,IN,1581485177,48,15.52,73.76,86.0,8.05
523,Itarema,96,BR,1581485178,97,-2.92,-39.92,74.17,3.04
524,Joensuu,90,FI,1581485178,97,62.58,29.75,35.01,11.41
525,Rantoul,1,US,1581485178,86,40.31,-88.16,30.2,5.06
526,Vostok,98,RU,1581484879,95,46.49,135.88,29.98,10.87
527,Angoche,100,MZ,1581485178,93,-16.23,39.91,79.11,2.26
528,Kutahya,75,TR,1581485179,98,39.42,29.98,37.4,10.29
529,Kingaroy,38,AU,1581485179,69,-26.53,151.83,80.01,11.41
530,Sao Francisco do Sul,44,BR,1581485179,87,-26.24,-48.64,66.99,8.97
531,Rocha,0,UY,1581484886,93,-34.48,-54.33,57.24,4.09
532,Payette,1,US,1581485179,80,44.08,-116.93,36.0,3.36
533,Sidi Ben Nour,0,TN,1581485180,87,35.53,10.92,59.0,3.36
534,Aranos,10,NA,1581485180,36,-24.13,19.12,79.75,10.56
535,Abu Zabad,15,SD,1581485180,17,12.35,29.25,58.68,20.89
536,Novyy Urengoy,90,RU,1581485181,93,66.08,76.63,10.65,12.95
537,Fonte Boa,85,BR,1581485181,89,-2.5,-66.27,72.05,1.45
538,Itabera,65,BR,1581485182,88,-23.86,-49.14,59.32,8.68
539,Vilhena,93,BR,1581485182,97,-12.74,-60.15,69.31,1.21
540,Montrose,1,US,1581485182,63,38.42,-108.27,28.4,6.93
541,Waipawa,100,NZ,1581485182,60,-41.41,175.52,69.8,19.46
542,Finschhafen,22,PG,1581485183,74,-6.6,147.87,84.07,40.26
543,Chumikan,100,RU,1581485183,92,54.72,135.31,8.49,3.0
544,Mezhdurechensk,73,RU,1581485183,67,53.69,88.06,13.37,2.66
545,Savannah Bight,0,HN,1581485183,76,16.45,-85.85,80.83,22.88
546,Hobyo,16,SO,1581485184,61,5.35,48.53,81.55,19.64
547,Souillac,40,MU,1581485184,94,-20.52,57.52,84.0,12.75
548,Bend,1,US,1581484932,69,44.06,-121.32,39.2,4.65
549,Maseru,20,LS,1581485114,100,-29.32,27.48,57.2,2.04
550,Kharan,83,PK,1581485184,25,28.58,65.42,71.4,11.56
551,Sibolga,100,ID,1581484926,52,1.74,98.78,91.11,3.06
552,Riyadh,0,SA,1581485185,37,24.69,46.72,35.6,9.17
553,Marawi,7,PH,1581484700,85,8.0,124.29,80.01,10.0
554,Greymouth,100,NZ,1581485186,79,-42.47,171.2,61.45,5.95
555,Batagay-Alyta,94,RU,1581485186,99,67.8,130.41,-17.25,1.72
556,Polovinnoye,100,RU,1581485186,94,54.79,65.99,9.32,10.0
557,Hukuntsi,5,BW,1581485187,69,-24.0,21.75,72.19,11.65
558,Tabuk,0,PH,1581485187,61,17.42,121.44,79.92,9.4
559,Manta,75,EC,1581485054,83,-0.95,-80.73,78.8,5.82
560,Megion,75,RU,1581485188,85,61.03,76.11,14.0,8.95
561,Kununurra,100,AU,1581485061,62,-15.77,128.73,89.6,3.36
562,San Ramon,1,US,1581484960,46,37.78,-121.98,59.0,1.95
563,Salinas,1,US,1581485188,66,36.68,-121.66,55.0,2.93
564,Yarada,20,IN,1581485062,61,17.65,83.27,80.6,8.05
565,Shenjiamen,89,CN,1581485189,92,29.96,122.3,51.53,12.95
566,Omsukchan,0,RU,1581485189,35,62.53,155.8,-14.28,3.71
567,Kyzyl-Suu,2,KG,1581485189,73,42.34,78.0,35.38,5.64
568,City of San Pedro,20,PH,1581485189,45,14.35,121.02,89.01,12.75
